{
  "park": [
    {
      "name": "Stadtpark",
      "address": "Hamburg-Nord, 22303 Hamburg",
      "coordinates": ["53.5970", "10.0207"]
    },

    {
      "name": "Hammer Park",
      "address": "Hammerpark, 20535 Hamburg",
      "coordinates": ["53.5586957", "10.0544648"]
    },

    {
      "name": "Planten un Blomen",
      "address": "Marseiller Str., 20355 Hamburg",
      "coordinates": ["53.5602", "9.9822"]
    },

    {
      "name": "Altonaer Volkspark",
      "address": "August-Kirch-Straße 19, 22525 Hamburg",
      "coordinates": ["53.571389", "9.964722"]
    },

    {
      "name": "Jenisch Park",
      "address": "Baron-Voght-Straße 50, 22609 Hamburg",
      "coordinates": ["53.5518905", "9.866035"]
    },

    {
      "name": "Öjendorfer Park",
      "address": "Barsbütteler Weg 49, 22117 Hamburg",
      "coordinates": ["53.5970", "10.1309492"]
    },

    {
      "name": "Wohlers Park",
      "address": "Norderreihe 2, 22767 Hamburg",
      "coordinates": ["53.5579258", "9.9508007"]
    },

    {
      "name": "PARKS",
      "address": "Bullerdeich 6, 20537 Hamburg",
      "coordinates": ["53.5433186", "10.0169714"]
    },

    {
      "name": "Wilhelmsburg Island Park",
      "address": "Am Inselpark, 21109 Hamburg",
      "coordinates": ["53.494386", "9.9999391"]
    },

    {
      "name": "Eimsbütteler Park",
      "address": "Ottersbekallee, 20255 Hamburg",
      "coordinates": ["53.578896", "9.9559724"]
    },

    {
      "name": "Blohms Park",
      "address": "Horner Landstraße 52, 22111 Hamburg",
      "coordinates": ["53.5524517", "10.0723488"]
    },

    {
      "name": "Innocentia Park",
      "address": "20144 Hamburg",
      "coordinates": ["53.5779532", "9.9807973"]
    },

    {
      "name": "Eilbek Park",
      "address": "22081 Hamburg",
      "coordinates": ["53.5715132", "10.0451888"]
    },

    {
      "name": "Hayns Park",
      "address": "Eppendorfer Landstraße 148B, 20251 Hamburg",
      "coordinates": ["53.5960367", "9.9871325"]
    },

    {
      "name": "Park Fiction",
      "address": "20359 Hamburg",
      "coordinates": ["53.5462598", "9.9549168"]
    },

    {
      "name": "Thörls Park",
      "address": "Sievekingdamm 7, 20535 Hamburg",
      "coordinates": ["53.5562373", "10.0426841"]
    },

    {
      "name": "Kellinghusen Park",
      "address": "20249 Hamburg",
      "coordinates": ["53.588509", "9.9860069"]
    },

    {
      "name": "Von-Eicken Park",
      "address": "22529 Hamburg",
      "coordinates": ["53.6033383", "9.954831"]
    },

    {
      "name": "Old Elbe Park",
      "address": "Helgoländer Allee, 20459 Hamburg",
      "coordinates": ["53.54928", "9.9691833"]
    },

    {
      "name": "Gustav-Mahler Park",
      "address": "Esplanade 39, 20354 Hamburg",
      "coordinates": ["53.5586436", "9.9890094"]
    },

    {
      "name": "Schanzen Park",
      "address": "Schröderstiftstraße, 20357 Hamburg",
      "coordinates": ["53.5653898", "9.9676838"]
    }
  ]
}
